[
  {
    "timestamp": "2025-06-24T15:48:33.859980+00:00",
    "stations": [
      {
        "id": "283603e1-c280-4926-aefc-2772a19dc661",
        "name": "ENI",
        "brand": "AGIP ENI",
        "street": "Thomas Muentzer Str.",
        "place": "Merseburg",
        "lat": 51.35263,
        "lng": 11.98054,
        "dist": 1.1,
        "diesel": 1.629,
        "e5": 1.759,
        "e10": 1.699,
        "isOpen": true,
        "houseNumber": "74",
        "postCode": 6217,
        "status": "open"
      },
      {
        "id": "b8c9911e-d23a-4063-9269-40ff5d0684c5",
        "name": "TotalEnergies Merseburg",
        "brand": "TotalEnergies",
        "street": "Thomas-Muentzer-Str.",
        "place": "Merseburg",
        "lat": 51.344918,
        "lng": 11.987999,
        "dist": 1.3,
        "diesel": 1.619,
        "e5": 1.749,
        "e10": 1.689,
        "isOpen": true,
        "houseNumber": "5",
        "postCode": 6217,
        "status": "open"
      },
      {
        "id": "ca9424ce-0a27-4180-af66-8376199788e4",
        "name": "Aral Tankstelle",
        "brand": "ARAL",
        "street": "Thomas-Müntzer-Strasse",
        "place": "Merseburg",
        "lat": 51.34279,
        "lng": 11.9892,
        "dist": 1.5,
        "diesel": 1.619,
        "e5": 1.749,
        "e10": 1.689,
        "isOpen": true,
        "houseNumber": "2",
        "postCode": 6217,
        "status": "open"
      },
      {
        "id": "a6e99069-ac8c-43b4-a6c6-4c13392fc657",
        "name": "Shell Merseburg Amtshäuser Str. 31",
        "brand": "Shell",
        "street": "Amtshäuser Str.",
        "place": "Merseburg",
        "lat": 51.359092,
        "lng": 12.017151,
        "dist": 1.5,
        "diesel": 1.629,
        "e5": 1.759,
        "e10": 1.699,
        "isOpen": true,
        "houseNumber": "31",
        "postCode": 6217,
        "status": "open"
      },
      {
        "id": "005056ba-7cb6-1ed2-bceb-619811956d1d",
        "name": "star Tankstelle",
        "brand": "STAR",
        "street": "Leipziger Straße",
        "place": "Merseburg",
        "lat": 51.360195,
        "lng": 12.019128,
        "dist": 1.7,
        "diesel": 1.609,
        "e5": 1.739,
        "e10": 1.679,
        "isOpen": true,
        "houseNumber": "11",
        "postCode": 6217,
        "status": "open"
      },
      {
        "id": "eb9746c0-e174-4c94-bb2a-2ba4997b540c",
        "name": "TotalEnergies Merseburg",
        "brand": "TotalEnergies",
        "street": "Querfurter Str.",
        "place": "Merseburg",
        "lat": 51.371793,
        "lng": 11.982872,
        "dist": 2.1,
        "diesel": 1.619,
        "e5": 1.749,
        "e10": 1.689,
        "isOpen": true,
        "houseNumber": "4A",
        "postCode": 6217,
        "status": "open"
      },
      {
        "id": "fbd56ed3-c51e-4c05-b5c1-c4211fdfbfde",
        "name": "blitz-tank Automatentankstelle am Kaufland",
        "brand": "blitz-tank",
        "street": "Querfurter Str.",
        "place": "Merseburg",
        "lat": 51.37222,
        "lng": 11.974943,
        "dist": 2.4,
        "diesel": 1.599,
        "e5": 1.729,
        "e10": 1.669,
        "isOpen": true,
        "houseNumber": "22",
        "postCode": 6217,
        "status": "open"
      },
      {
        "id": "005056ba-7cb6-1ed2-bceb-70d6a4dd8d23",
        "name": "star Tankstelle",
        "brand": "STAR",
        "street": "Gewerbestraße",
        "place": "Leuna",
        "lat": 51.332618,
        "lng": 11.999377,
        "dist": 2.5,
        "diesel": 1.609,
        "e5": 1.739,
        "e10": 1.679,
        "isOpen": true,
        "houseNumber": "1",
        "postCode": 6237,
        "status": "open"
      },
      {
        "id": "2e9ec7c8-815d-4750-bd35-22be4055ff22",
        "name": "Esso Tankstelle",
        "brand": "ESSO",
        "street": "HALLESCHE STR. 116",
        "place": "MERSEBURG",
        "lat": 51.380058,
        "lng": 11.986346,
        "dist": 2.8,
        "diesel": 1.609,
        "e5": 1.739,
        "e10": 1.679,
        "isOpen": true,
        "houseNumber": "",
        "postCode": 6217,
        "status": "open"
      }
    ]
  }
]